[
    {
        "id": 1,
        "name": "Bilkent University Collection Center",
        "address": "Üniversiteler, 06800 Çankaya/Ankara",
        "location": "39.8680167,32.7498917",
        "ema": 1
    },
    {
        "id": 2,
        "name": "METU Collection Center",
        "address": "Orta Doğu Teknik Üniversitesi, Üniversiteler Mahallesi, Dumlupınar Bulvarı No:1 06800 Çankaya/Ankara",
        "location": "39.889809,32.6976851",
        "ema": 1
    },
    {
        "id": 3,
        "name": "Hacettepe University Collection Center",
        "address": "Üniversiteler Mh., Hacettepe Üniversitesi Teknokent, 1596. Cadde, 6. Ar-Ge C Blok Çankaya/Ankara",
        "location": "39.8805029,32.7352076",
        "ema": 1
    },
    {
        "id": 4,
        "name": "Yildiz Saray Sitesi Collection Center",
        "address": "Kardelen, 2032. Sk., 06370 Yenimahalle/Ankara",
        "location": "39.9789611,32.7097141",
        "ema": 1
    },
    {
        "id": 5,
        "name": "Batipark Sitesi Collection Center",
        "address": "Kardelen, 2040. Sk., 06370 Yenimahalle/Ankara",
        "location": "39.9736741,32.7031151",
        "ema": 1
    },
    {
        "id": 6,
        "name": "Ankara Atatürk Spor Salonu Collection Center",
        "address": "Batı Sitesi Mahallesi, Ankara Hipodromu Kavşağı No:2, 06370 Altındağ/Ankara",
        "location": "39.9377076,32.8416597",
        "ema": 1
    },
    {
        "id": 7,
        "name": "Atakule Collection Center",
        "address": "Çankaya, Çankaya Cd. No:10/B, 06680 Çankaya/Ankara",
        "location": "39.88657,32.8528845",
        "ema": 1
    },
    {
        "id": 8,
        "name": "ATG Collection Center",
        "address": "Eti Mahallesi, Celal Bayar Bulvarı No:78, 06570 Çankaya/Ankara",
        "location": "39.9363733,32.8412974",
        "ema": 1
    },
    {
        "id": 9,
        "name": "Eryaman Stadyumu Collection Center",
        "address": "Eryaman, 259. Sk. No:4, 06824 Etimesgut/Ankara",
        "location": "39.9799387,32.6111404",
        "ema": 1
    },
    {
        "id": 10,
        "name": "Altinkaya Collection Center",
        "address": "06935, Sincan Osb/Sincan/Ankara",
        "location": "39.980942,32.5438041",
        "ema": 1
    },
    {
        "id": 11,
        "name": "Meram Collection Center",
        "address": "Yenişehir Mahallesi, Azerbeycan Cd. No:5, 42010 Meram/Konya",
        "location": "37.8547533,32.4718546",
        "ema": 1
    },
    {
        "id": 12,
        "name": "Karatay Collection Center",
        "address": "Fetih, Saadet Cd. No:2, 42030 Karatay/Konya",
        "location": "37.845143,32.4634462",
        "ema": 1
    },
    {
        "id": 13,
        "name": "Pema Collection Center",
        "address": "Parsana, Yazma Sk. No:3, 42130 Selçuklu/Konya",
        "location": "37.9452865,32.4723425",
        "ema": 1
    },
    {
        "id": 14,
        "name": "Afyon Kocatepe Collection Center",
        "address": "Erenler, ahmet necdet sezer kampüsü, 03204 Afyonkarahisar Merkez/Afyonkarahisar",
        "location": "38.8023774,30.5379017",
        "ema": 1
    },
    {
        "id": 15,
        "name": "Özdilek Collection Center",
        "address": "Dörtyol, Afyon Kütahya Yolu No:1, 03030 Afyonkarahisar Merkez/Afyonkarahisar",
        "location": "38.7875501,30.4512631",
        "ema": 1
    }
]