[
    {
        "id": 1,
        "name": "Cuma Pazari Distribution Center",
        "address": "Kardelen, 2026 Arı 85 Arkent 91 Sitesi No:61, 06370 Yenimahalle/Ankara",
        "location": "39.9733784,32.7025253"
    },
    {
        "id": 2,
        "name": "Dayanisma Parki Distribution Center",
        "address": "Kardelen, Dayanışma Parkı ve Spor Alanı İç Yolu, 06370 Yenimahalle/Ankara",
        "location": "39.9779661,32.7108283"
    },
    {
        "id": 3,
        "name": "Cankaya University Distribution Center",
        "address": "Yukarıyurtçu Mahallesi Eskişehir Yolu 29. Km, Mimar Sinan Caddesi No:4, 06790 Etimesgut/Ankara",
        "location": "39.819396,32.5616982"
    },
    {
        "id": 4,
        "name": "ITU Ayazaga Distribution Center",
        "address": "Maslak, 34485 Sarıyer/İstanbul",
        "location": "41.1022471,29.017464"
    },
    {
        "id": 5,
        "name": "Beykoz Distribution Center",
        "address": "Merkez, Kelle İbrahim Cd. 30 A, 34820 Beykoz/İstanbul",
        "location": "41.1372916,29.0853805"
    },
    {
        "id": 6,
        "name": "Kuleli Distribution Center",
        "address": "Kuleli, Çengelköy, Kuleli Cd. 58/1, 34680 Üsküdar/İstanbul",
        "location": "41.0587262,29.053347"
    },
    {
        "id": 7,
        "name": "Yildiz Parki Distribution Center",
        "address": "Yıldız, Çırağan Cd., 34349 Beşiktaş/İstanbul",
        "location": "41.0488415,29.0098841"
    },
    {
        "id": 8,
        "name": "RAMS Park Distribution Center",
        "address": "Huzur Mh., Metin Oktay Caddesi, 34386 Sarıyer/İstanbul",
        "location": "41.0992695,28.9828931"
    },
    {
        "id": 9,
        "name": "Karsiyaka Sahil Distribution Center",
        "address": "Donanmacı, Park İçi Yolu, 35580 Karşıyaka/İzmir",
        "location": "38.441316,27.1102093"
    },
    {
        "id": 10,
        "name": "Kordon Alsancak Distribution Center",
        "address": "Alsancak, 35250 Konak/İzmir",
        "location": "38.4329336,27.133635"
    }
]